FMT, 128, 89, FMT, BBnNZ, Type,Length,Name,Format,Columns
FMT, 129, 31, PARM, QNf, TimeUS,Name,Value
FMT, 130, 46, GPS, QBIHBcLLefffB, TimeUS,Status,GMS,GWk,NSats,HDop,Lat,Lng,Alt,Spd,GCrs,VZ,U
FMT, 131, 46, GPS2, QBIHBcLLefefB, TimeUS,Status,GMS,GWk,NSats,HDop,Lat,Lng,Alt,Spd,GCrs,VZ,U
FMT, 196, 24, GPA, QCCCCBI, TimeUS,VDop,HAcc,VAcc,SAcc,VV,SMS
FMT, 197, 24, GPA2, QCCCCBI, TimeUS,VDop,HAcc,VAcc,SAcc,VV,SMS
FMT, 132, 49, IMU, QffffffIIfBB, TimeUS,GyrX,GyrY,GyrZ,AccX,AccY,AccZ,ErrG,ErrA,Temp,GyHlt,AcHlt
FMT, 133, 75, MSG, QZ, TimeUS,Message
FMT, 134, 39, RCIN, Qhhhhhhhhhhhhhh, TimeUS,C1,C2,C3,C4,C5,C6,C7,C8,C9,C10,C11,C12,C13,C14
FMT, 135, 39, RCOU, Qhhhhhhhhhhhhhh, TimeUS,C1,C2,C3,C4,C5,C6,C7,C8,C9,C10,C11,C12,C13,C14
FMT, 136, 15, RSSI, Qf, TimeUS,RXRSSI
FMT, 138, 33, BARO, QffcfIf, TimeUS,Alt,Press,Temp,CRt,SMS,Offset
FMT, 139, 21, POWR, QffH, TimeUS,Vcc,VServo,Flags
FMT, 146, 45, CMD, QHHHfffffff, TimeUS,CTot,CNum,CId,Prm1,Prm2,Prm3,Prm4,Lat,Lng,Alt
FMT, 147, 20, RAD, QBBBBBHH, TimeUS,RSSI,RemRSSI,TxBuf,Noise,RemNoise,RxErrors,Fixed
FMT, 149, 43, CAM, QIHLLeeeccC, TimeUS,GPSTime,GPSWeek,Lat,Lng,Alt,RelAlt,GPSAlt,Roll,Pitch,Yaw
FMT, 218, 43, TRIG, QIHLLeeeccC, TimeUS,GPSTime,GPSWeek,Lat,Lng,Alt,RelAlt,GPSAlt,Roll,Pitch,Yaw
FMT, 166, 30, ARSP, QffcffB, TimeUS,Airspeed,DiffPress,Temp,RawPress,Offset,U
FMT, 168, 23, CURR, Qfff, TimeUS,Volt,Curr,CurrTot
FMT, 169, 23, CUR2, Qfff, TimeUS,Volt,Curr,CurrTot
FMT, 167, 27, ATT, QccccCCCC, TimeUS,DesRoll,Roll,DesPitch,Pitch,DesYaw,Yaw,ErrRP,ErrYaw
FMT, 170, 34, MAG, QhhhhhhhhhBI, TimeUS,MagX,MagY,MagZ,OfsX,OfsY,OfsZ,MOfsX,MOfsY,MOfsZ,Health,S
FMT, 173, 14, MODE, QMBB, TimeUS,Mode,ModeNum,Rsn
FMT, 198, 15, RFND, QCC, TimeUS,Dist1,Dist2
FMT, 209, 33, DMS, IIIIIBBBBBBBBBB, TimeMS,N,Dp,RT,RS,Er,Fa,Fmn,Fmx,Pa,Pmn,Pmx,Sa,Smn,Smx
FMT, 137, 49, IMU2, QffffffIIfBB, TimeUS,GyrX,GyrY,GyrZ,AccX,AccY,AccZ,ErrG,ErrA,Temp,GyHlt,AcHlt
FMT, 150, 49, IMU3, QffffffIIfBB, TimeUS,GyrX,GyrY,GyrZ,AccX,AccY,AccZ,ErrG,ErrA,Temp,GyHlt,AcHlt
FMT, 140, 29, AHR2, QccCfLL, TimeUS,Roll,Pitch,Yaw,Alt,Lat,Lng
FMT, 184, 27, POS, QLLff, TimeUS,Lat,Lng,Alt,RelAlt
FMT, 141, 29, SIM, QccCfLL, TimeUS,Roll,Pitch,Yaw,Alt,Lat,Lng
FMT, 142, 51, EKF1, QccCfffffffccc, TimeUS,Roll,Pitch,Yaw,VN,VE,VD,dPD,PN,PE,PD,GX,GY,GZ
FMT, 143, 30, EKF2, Qbbbcchhhhhh, TimeUS,Ratio,AZ1bias,AZ2bias,VWN,VWE,MN,ME,MD,MX,MY,MZ
FMT, 144, 31, EKF3, Qcccccchhhc, TimeUS,IVN,IVE,IVD,IPN,IPE,IPD,IMX,IMY,IMZ,IVT
FMT, 145, 34, EKF4, QcccccccbbHBHH, TimeUS,SV,SP,SH,SMX,SMY,SMZ,SVT,OFN,OFE,FS,TS,SS,GPS
FMT, 164, 28, EKF5, QBhhhcccCC, TimeUS,normInnov,FIX,FIY,AFI,HAGL,offset,RI,meaRng,errHAGL
FMT, 200, 51, NKF1, QccCfffffffccc, TimeUS,Roll,Pitch,Yaw,VN,VE,VD,dPD,PN,PE,PD,GX,GY,GZ
FMT, 201, 35, NKF2, QbccccchhhhhhB, TimeUS,AZbias,GSX,GSY,GSZ,VWN,VWE,MN,ME,MD,MX,MY,MZ,MI
FMT, 202, 33, NKF3, Qcccccchhhcc, TimeUS,IVN,IVE,IVD,IPN,IPE,IPD,IMX,IMY,IMZ,IYAW,IVT
FMT, 203, 35, NKF4, QcccccfbbHBHHb, TimeUS,SV,SP,SH,SM,SVT,errRP,OFN,OFE,FS,TS,SS,GPS,PI
FMT, 204, 28, NKF5, QBhhhcccCC, TimeUS,normInnov,FIX,FIY,AFI,HAGL,offset,RI,meaRng,errHAGL
FMT, 205, 51, NKF6, QccCfffffffccc, TimeUS,Roll,Pitch,Yaw,VN,VE,VD,dPD,PN,PE,PD,GX,GY,GZ
FMT, 206, 35, NKF7, QbccccchhhhhhB, TimeUS,AZbias,GSX,GSY,GSZ,VWN,VWE,MN,ME,MD,MX,MY,MZ,MI
FMT, 207, 33, NKF8, Qcccccchhhcc, TimeUS,IVN,IVE,IVD,IPN,IPE,IPD,IMX,IMY,IMZ,IYAW,IVT
FMT, 208, 35, NKF9, QcccccfbbHBHHb, TimeUS,SV,SP,SH,SM,SVT,errRP,OFN,OFE,FS,TS,SS,GPS,PI
FMT, 151, 34, TERR, QBLLHffHH, TimeUS,Status,Lat,Lng,Spacing,TerrH,CHeight,Pending,Loaded
FMT, 152, 18, UBX1, QBHBBH, TimeUS,Instance,noisePerMS,jamInd,aPower,agcCnt
FMT, 153, 16, UBX2, QBbBbB, TimeUS,Instance,ofsI,magI,ofsQ,magQ
FMT, 154, 18, UBY1, QBHBBH, TimeUS,Instance,noisePerMS,jamInd,aPower,agcCnt
FMT, 155, 16, UBY2, QBbBbB, TimeUS,Instance,ofsI,magI,ofsQ,magQ
FMT, 174, 42, GRAW, QIHBBddfBbB, TimeUS,WkMS,Week,numSV,sv,cpMes,prMes,doMes,mesQI,cno,lli
FMT, 175, 24, GRXH, QdHbBB, TimeUS,rcvTime,week,leapS,numMeas,recStat
FMT, 176, 41, GRXS, QddfBBBHBBBBB, TimeUS,prMes,cpMes,doMes,gnss,sv,freq,lock,cno,prD,cpD,doD,trk
FMT, 177, 63, SBFE, QIHBBdddfffff, TimeUS,TOW,WN,Mode,Err,Lat,Lng,Height,Undul,Vn,Ve,Vu,COG
FMT, 156, 19, ESC1, Qcccc, TimeUS,RPM,Volt,Curr,Temp
FMT, 157, 19, ESC2, Qcccc, TimeUS,RPM,Volt,Curr,Temp
FMT, 158, 19, ESC3, Qcccc, TimeUS,RPM,Volt,Curr,Temp
FMT, 159, 19, ESC4, Qcccc, TimeUS,RPM,Volt,Curr,Temp
FMT, 160, 19, ESC5, Qcccc, TimeUS,RPM,Volt,Curr,Temp
FMT, 161, 19, ESC6, Qcccc, TimeUS,RPM,Volt,Curr,Temp
FMT, 162, 19, ESC7, Qcccc, TimeUS,RPM,Volt,Curr,Temp
FMT, 163, 19, ESC8, Qcccc, TimeUS,RPM,Volt,Curr,Temp
FMT, 171, 34, MAG2, QhhhhhhhhhBI, TimeUS,MagX,MagY,MagZ,OfsX,OfsY,OfsZ,MOfsX,MOfsY,MOfsZ,Health,S
FMT, 172, 34, MAG3, QhhhhhhhhhBI, TimeUS,MagX,MagY,MagZ,OfsX,OfsY,OfsZ,MOfsX,MOfsY,MOfsZ,Health,S
FMT, 178, 31, ACC1, QQfff, TimeUS,SampleUS,AccX,AccY,AccZ
FMT, 179, 31, ACC2, QQfff, TimeUS,SampleUS,AccX,AccY,AccZ
FMT, 180, 31, ACC3, QQfff, TimeUS,SampleUS,AccX,AccY,AccZ
FMT, 181, 31, GYR1, QQfff, TimeUS,SampleUS,GyrX,GyrY,GyrZ
FMT, 182, 31, GYR2, QQfff, TimeUS,SampleUS,GyrX,GyrY,GyrZ
FMT, 183, 31, GYR3, QQfff, TimeUS,SampleUS,GyrX,GyrY,GyrZ
FMT, 185, 35, PIDR, Qffffff, TimeUS,Des,P,I,D,FF,AFF
FMT, 186, 35, PIDP, Qffffff, TimeUS,Des,P,I,D,FF,AFF
FMT, 187, 35, PIDY, Qffffff, TimeUS,Des,P,I,D,FF,AFF
FMT, 188, 35, PIDA, Qffffff, TimeUS,Des,P,I,D,FF,AFF
FMT, 189, 35, PIDS, Qffffff, TimeUS,Des,P,I,D,FF,AFF
FMT, 165, 33, BAR2, QffcfIf, TimeUS,Alt,Press,Temp,CRt,SMS,Offset
FMT, 199, 33, BAR3, QffcfI, TimeUS,Alt,Press,Temp,CRt,SMS
FMT, 190, 35, VIBE, QfffIII, TimeUS,VibeX,VibeY,VibeZ,Clip0,Clip1,Clip2
FMT, 191, 47, IMT, Qfffffffff, TimeUS,DelT,DelvT,DelaT,DelAX,DelAY,DelAZ,DelVX,DelVY,DelVZ
FMT, 192, 47, IMT2, Qfffffffff, TimeUS,DelT,DelvT,DelaT,DelAX,DelAY,DelAZ,DelVX,DelVY,DelVZ
FMT, 193, 47, IMT3, Qfffffffff, TimeUS,DelT,DelvT,DelaT,DelAX,DelAY,DelAZ,DelVX,DelVY,DelVZ
FMT, 194, 24, ORGN, QBLLe, TimeUS,Type,Lat,Lng,Alt
FMT, 195, 19, RPM, Qff, TimeUS,rpm1,rpm2
FMT, 219, 47, GMB1, Iffffffffff, TimeMS,dt,dax,day,daz,dvx,dvy,dvz,jx,jy,jz
FMT, 220, 44, GMB2, IBfffffffff, TimeMS,es,ex,ey,ez,rx,ry,rz,tx,ty,tz
FMT, 221, 13, GMB3, Ihhh, TimeMS,rl_torque_cmd,el_torque_cmd,az_torque_cmd
FMT, 222, 59, RATE, Qffffffffffff, TimeUS,RDes,R,ROut,PDes,P,POut,YDes,Y,YOut,ADes,A,AOut
FMT, 223, 23, RALY, QBBLLh, TimeUS,Tot,Seq,Lat,Lng,Alt
FMT, 210, 23, SBPH, QIII, TimeUS,CrcError,LastInject,IARhyp
FMT, 215, 80, SBR1, QHHBZ, TimeUS,msg_type,sender_id,msg_len,d1
FMT, 216, 205, SBR2, QHZZZ, TimeUS,msg_type,d2,d3,d4
FMT, 25, 41, ATUN, QBBfffffff, TimeUS,Axis,TuneStep,Targ,Min,Max,RP,RD,SP,ddt
FMT, 26, 19, ATDE, Qff, TimeUS,Angle,Rate
FMT, 31, 22, PTUN, QBfHHH, TimeUS,Param,TunVal,CtrlIn,TunLo,TunHi
FMT, 12, 28, OF, QBffff, TimeUS,Qual,flowX,flowY,bodyX,bodyY
FMT, 5, 51, NTUN, Qffffffffff, TimeUS,DPosX,DPosY,PosX,PosY,DVelX,DVelY,VelX,VelY,DAccX,DAccY
FMT, 4, 51, CTUN, Qffffffeccfhh, TimeUS,ThI,ABst,ThO,ThH,DAlt,Alt,BAlt,DSAlt,SAlt,TAlt,DCRt,CRt
FMT, 6, 28, PM, QHHIhBHI, TimeUS,NLon,NLoop,MaxT,PMT,I2CErr,INSErr,LogDrop
FMT, 30, 27, MOTB, Qffff, TimeUS,LiftMax,BatVolt,BatRes,ThLimit
FMT, 13, 12, EV, QB, TimeUS,Id
FMT, 20, 14, D16, QBh, TimeUS,Id,Value
FMT, 21, 14, DU16, QBH, TimeUS,Id,Value
FMT, 22, 16, D32, QBi, TimeUS,Id,Value
FMT, 23, 16, DU32, QBI, TimeUS,Id,Value
FMT, 24, 16, DFLT, QBf, TimeUS,Id,Value
FMT, 19, 13, ERR, QBB, TimeUS,Subsys,ECode
FMT, 32, 19, HELI, Qff, TimeUS,DRRPM,ERRPM
FMT, 33, 36, PL, QBffffff, TimeUS,Heal,bX,bY,eX,eY,pX,pY
FMT, 34, 36, GUID, QBffffff, TimeUS,Type,pX,pY,pZ,vX,vY,vZ
EV, 15052671, 18
EV, 15061620, 17
MODE, 15069814, Loiter, 5, 1
MSG, 15133903, APM:Copter V3.4-dev (c926d7d4)
MSG, 15133918, PX4: 4a1d6880 NuttX: 579e82d4
MSG, 15133968, PX4v2 002A0041 33355107 33373538
MSG, 15133983, New mission
MSG, 15133998, Frame: QUAD
MODE, 15134011, Loiter, 5, 1
IMU, 15151271, 0.0005651286, 9.748322E-05, 0.0136766, 0.06998843, -0.08071728, -9.645634, 0, 0, 14.8338, 1, 1
IMU2, 15151271, -0.005320072, -0.000822011, 0.01209541, 0.2389987, -0.05025427, -10.0405, 0, 0, 18.875, 1, 1
CURR, 15171421, 13.93981, 0, 0
POWR, 15171431, 5.38667, 0, 1
MAG, 15171471, 314, -278, 406, -129, 47, -16, 0, 0, 0, 1, 15171463
MAG2, 15171471, 210, -192, 353, -114, -131, -6, 0, 0, 0, 1, 15171465
BARO, 15171628, -0.03176264, 103523.8, 15.57, 0.2473662, 15171, 0
CTUN, 15172540, 0, 0, 0, 0.327826, 0, 0, -0.03, 0.00, 0.00, 0, 0, 0
ATT, 15172625, 0.81, 0.81, -0.92, -0.92, 41.44, 41.44, 1.00, 0.64
RATE, 15172640, 0.2534961, 0.2534961, -0.0005641166, 0.1487952, 0.1487952, -0.0006804758, 0.2928781, 0.2928781, 0.0002835914, -0.2475739, -0.2475739, 0
MOTB, 15172654, 1, 1, 0, 1
RCIN, 15172664, 1512, 1502, 1089, 1504, 1087, 1921, 1920, 1920, 0, 0, 0, 0, 0, 0
RCOU, 15172733, 1087, 1087, 1087, 1087, -1, -1, -1, -1, -1, -1, -1, -1, -1, -1
NTUN, 15172967, 0, 0, 0, 0, 0, 0, 0, 0, 2.650235, 21.02927
VIBE, 15172977, 0.02822362, 0.03809461, 0.04739797, 0, 0, 0
FMT, 254, 31, CTRL, Qfffff, TimeUS,RMSRollP,RMSRollD,RMSPitchP,RMSPitchD,RMSYaw
CTRL, 15172996, 0.0003998388, 0.000765988, 0.0003085939, 0.000657686, 0.001115201
IMU, 15191345, -0.0004755147, -0.0003695498, -0.001822366, 0.09183428, -0.1425016, -9.636876, 0, 0, 14.8338, 1, 1
IMU2, 15191345, 0.002566312, -0.002266288, 0.0008907148, 0.2668129, -0.01762377, -10.05072, 0, 0, 18.75, 1, 1
IMU, 15231331, -0.0008877153, 0.0004889193, -0.01341731, 0.08004113, -0.09854539, -9.610686, 0, 0, 14.74515, 1, 1
IMU2, 15231331, 0.002868191, -0.001643295, -0.01689078, 0.2425612, -0.0134392, -10.01946, 0, 0, 18.75, 1, 1
CURR, 15271187, 13.94938, 0, 0
POWR, 15271201, 5.38667, 0.007, 1
MAG, 15271233, 315, -276, 406, -129, 47, -16, 0, 0, 0, 1, 15271225
MAG2, 15271233, 211, -194, 350, -114, -131, -6, 0, 0, 0, 1, 15271227
BARO, 15271340, 0.04499708, 103522.9, 15.59, 0.860512, 15271, 0
CTUN, 15271359, 0, 0, 0, 0.327826, 0, 0, 0.04, 0.00, 0.00, 0, 0, 0
ATT, 15271393, 0.82, 0.82, -0.92, -0.92, 41.42, 41.42, 0.80, 0.51
RATE, 15271408, 0.06435799, 0.06435799, -0.0002711276, 0.2100496, 0.2100496, 0.001714845, 0.2600097, 0.2600097, -6.201497E-05, -14.17532, -14.17532, 0
MOTB, 15271421, 1, 1, 0, 1
RCIN, 15271431, 1511, 1504, 1089, 1503, 1087, 1921, 1920, 1920, 0, 0, 0, 0, 0, 0
RCOU, 15271547, 1087, 1087, 1087, 1087, -1, -1, -1, -1, -1, -1, -1, -1, -1, -1
NTUN, 15271571, 0, 0, 0, 0, 0, 0, 0, 0, 2.595355, 21.08084
VIBE, 15271581, 0.02803391, 0.03893249, 0.04344827, 0, 0, 0
CTRL, 15271630, 0.000459925, 0.0008862168, 0.0005034231, 0.001070395, 0.0009182318
IMU, 15271662, 0.0004306764, 0.0004846325, 0.005450288, 0.07694149, -0.09150739, -9.623455, 0, 0, 14.8338, 1, 1
IMU2, 15271662, 0.0002307975, 0.002022799, 0.003379563, 0.2740103, -0.0808102, -10.06039, 0, 0, 18.875, 1, 1
IMU, 15311171, -0.0001404765, 0.0001937335, 0.008095949, 0.07534032, -0.1014306, -9.647249, 0, 0, 14.8338, 1, 1
IMU2, 15311171, 0.0009955856, -0.003522802, 0.007825324, 0.2272396, -0.09275634, -10.10463, 0, 0, 18.875, 1, 1
IMU, 15351230, -0.0004482407, -0.0004546377, -0.01185058, 0.07021352, -0.1269646, -9.621064, 0, 0, 14.74515, 1, 1
IMU2, 15351230, -0.002071137, -0.0009788397, -0.005190367, 0.2741518, -0.03721426, -10.08838, 0, 0, 18.875, 1, 1
CURR, 15371255, 13.9397, 0, 0
POWR, 15371265, 5.373779, 0.007, 1
MAG, 15371297, 317, -274, 404, -129, 47, -16, 0, 0, 0, 1, 15371289
MAG2, 15371297, 211, -194, 351, -114, -131, -6, 0, 0, 0, 1, 15371291
BARO, 15371397, -0.2011634, 103525.8, 15.59, 1.210963, 15371, 0
CTUN, 15371416, 0, 0, 0, 0.327826, 0, 0, -0.20, 0.00, 0.00, 0, 0, 0
ATT, 15371446, 0.81, 0.81, -0.92, -0.92, 41.42, 41.42, 0.80, 0.41
RATE, 15371461, 0.04481038, 0.04481038, 8.06056E-05, 0.02037028, 0.02037028, 0.001158504, -0.4399087, -0.4399087, 6.955319E-06, -12.78925, -12.78925, 0
MOTB, 15371474, 1, 1, 0, 1
RCIN, 15371485, 1512, 1504, 1089, 1503, 1087, 1921, 1919, 1920, 0, 0, 0, 0, 0, 0
RCOU, 15371553, 1087, 1087, 1087, 1087, -1, -1, -1, -1, -1, -1, -1, -1, -1, -1
NTUN, 15371574, 0, 0, 0, 0, 0, 0, 0, 0, 2.68433, 20.89767
VIBE, 15371624, 0.02927996, 0.03952638, 0.04526966, 0, 0, 0
CTRL, 15371643, 0.0004958554, 0.0009528092, 0.0005333889, 0.001137125, 0.0007531287
IMU, 15391284, -0.0007930802, -8.379696E-05, -0.003461639, 0.07969019, -0.1012716, -9.626432, 0, 0, 14.78947, 1, 1
IMU2, 15391284, 0.006506369, -0.0007446796, -0.003604554, 0.3259361, -0.05441162, -10.00883, 0, 0, 18.875, 1, 1
IMU, 15431403, 0.00039896, 0.0002843852, 0.0118592, 0.07731093, -0.1171338, -9.600456, 0, 0, 14.78947, 1, 1
IMU2, 15431403, 0.0004739017, 0.001101871, 0.008303219, 0.2862408, -0.02394465, -9.955364, 0, 0, 18.875, 1, 1
CURR, 15471126, 13.94992, 0, 0
POWR, 15471136, 5.360888, 0.004, 1
MAG, 15471176, 312, -276, 404, -129, 47, -16, 0, 0, 0, 1, 15471168
MAG2, 15471176, 210, -194, 352, -114, -131, -6, 0, 0, 0, 1, 15471170
BARO, 15471278, -0.03705642, 103523.9, 15.59, 1.14479, 15471, 0
CTUN, 15471296, 0, 0, 0, 0.327826, 0, 0, -0.03, 0.00, 0.00, 0, 0, 0
ATT, 15471326, 0.80, 0.80, -0.91, -0.91, 41.43, 41.43, 0.64, 0.32
RATE, 15471341, 0.01288761, 0.01288761, 0.0001888834, 0.09484543, 0.09484543, -0.001106151, -0.633754, -0.633754, 0.0001742617, -18.67733, -18.67733, 0
MOTB, 15471355, 1, 1, 0, 1
RCIN, 15471365, 1512, 1502, 1089, 1502, 1086, 1922, 1919, 1920, 0, 0, 0, 0, 0, 0
RCOU, 15471433, 1087, 1087, 1087, 1087, -1, -1, -1, -1, -1, -1, -1, -1, -1, -1
NTUN, 15471454, 0, 0, 0, 0, 0, 0, 0, 0, 2.571517, 20.7394
VIBE, 15471463, 0.02995969, 0.0350185, 0.04213188, 0, 0, 0
CTRL, 15471482, 0.0005225334, 0.0010029, 0.0005423279, 0.001155106, 0.0006181301
IMU, 15471509, -0.0008327281, -0.0002919208, -0.003633298, 0.0793716, -0.1290105, -9.630045, 0, 0, 14.87812, 1, 1
IMU2, 15471509, 0.005141948, 0.003556458, 0.001389326, 0.3216881, -0.06007676, -10.12332, 0, 0, 18.875, 1, 1
IMU, 15511270, -0.001064598, 0.0001546179, -0.01053329, 0.07948848, -0.1202728, -9.636276, 0, 0, 14.87812, 1, 1
IMU2, 15511270, 0.001143464, -0.005971279, -0.008206367, 0.2893181, 0.0007496109, -9.973351, 0, 0, 18.875, 1, 1
IMU, 15551316, -0.0006269657, -0.001128896, 0.007024356, 0.07653628, -0.08351024, -9.654838, 0, 0, 14.8338, 1, 1
IMU2, 15551316, 0.0003195242, 0.005577873, 0.002953304, 0.2186362, 0.01550645, -10.07086, 0, 0, 18.625, 1, 1
CURR, 15571340, 13.92894, 0, 0
POWR, 15571349, 5.367334, 0.007, 1
MAG, 15571381, 314, -276, 407, -129, 47, -16, 0, 0, 0, 1, 15571373
MAG2, 15571381, 207, -189, 357, -114, -131, -6, 0, 0, 0, 1, 15571375
BARO, 15571481, -0.01058755, 103523.5, 15.60, 0.4903148, 15571, 0
CTUN, 15571529, 0, 0, 0, 0.327826, 0, 0, -0.01, 0.00, 0.00, 0, 0, 0
ATT, 15571558, 0.80, 0.80, -0.90, -0.90, 41.43, 41.43, 0.64, 0.26
RATE, 15571574, -0.2079847, -0.2079847, 0.0002984613, 0.1012947, 0.1012947, 0.0001954695, 0.262803, 0.262803, -8.18825E-06, -12.78782, -12.78782, 0
MOTB, 15571628, 1, 1, 0, 1
RCIN, 15571638, 1511, 1503, 1089, 1501, 1087, 1921, 1920, 1920, 0, 0, 0, 0, 0, 0
RCOU, 15571707, 1087, 1087, 1087, 1087, -1, -1, -1, -1, -1, -1, -1, -1, -1, -1
NTUN, 15571728, 0, 0, 0, 0, 0, 0, 0, 0, 2.556471, 20.54531
VIBE, 15571792, 0.0291169, 0.03472788, 0.04609337, 0, 0, 0
CTRL, 15571811, 0.0005371492, 0.001031748, 0.0005464208, 0.001164387, 0.000508763
IMU, 15591417, 0.0004313379, 0.0006537414, 0.004637886, 0.07997927, -0.1220443, -9.653402, 0, 0, 14.74515, 1, 1
IMU2, 15591417, -0.001687071, -0.005681148, 0.003514039, 0.2499186, -0.05838366, -10.00861, 0, 0, 18.875, 1, 1
IMU, 15631592, 0.000113148, -0.0002042762, -0.01063045, 0.056064, -0.09669266, -9.621918, 0, 0, 14.8338, 1, 1
IMU2, 15631592, 0.001318586, 0.001583347, -0.0101552, 0.2802456, -0.02570236, -10.04225, 0, 0, 18.875, 1, 1
CURR, 15671329, 13.93862, 0, 0
POWR, 15671339, 5.393115, 0.002, 1
MAG, 15671417, 312, -280, 405, -129, 47, -16, 0, 0, 0, 1, 15671363
MAG2, 15671417, 208, -191, 355, -114, -131, -6, 0, 0, 0, 1, 15671365
BARO, 15671475, -0.1429319, 103525.2, 15.61, 0.06994463, 15671, 0
CTUN, 15671494, 0, 0, 0, 0.327826, 0, 0, -0.14, 0.00, 0.00, 0, 0, 0
ATT, 15671524, 0.79, 0.79, -0.90, -0.90, 41.41, 41.41, 0.51, 0.21
RATE, 15671539, 0.04262098, 0.04262098, 0.003514806, 0.0003623553, 0.0003623553, -0.00164508, 0.04180142, 0.04180142, -8.623849E-05, -26.36127, -26.36127, 0
MOTB, 15671552, 1, 1, 0, 1
RCIN, 15671562, 1511, 1503, 1088, 1502, 1087, 1921, 1920, 1920, 0, 0, 0, 0, 0, 0
RCOU, 15671631, 1087, 1087, 1087, 1087, -1, -1, -1, -1, -1, -1, -1, -1, -1, -1
NTUN, 15671652, 0, 0, 0, 0, 0, 0, 0, 0, 2.589092, 20.4528
VIBE, 15671661, 0.02584879, 0.0341416, 0.04537902, 0, 0, 0
CTRL, 15671679, 0.0005234057, 0.001007643, 0.000528836, 0.001126961, 0.0004183811
IMU, 15671707, -0.001076746, -5.282467E-05, -0.0007286326, 0.08309728, -0.08564167, -9.631351, 0, 0, 14.87812, 1, 1
IMU2, 15671707, 0.0007920482, 0.001431273, -0.009404366, 0.2222657, -0.01024025, -10.09341, 0, 0, 18.875, 1, 1
IMU, 15711271, 0.000898766, 0.001378804, 0.009648181, 0.08699479, -0.1143575, -9.638514, 0, 0, 14.78947, 1, 1
IMU2, 15711271, -0.001444069, 0.003021083, 0.003298102, 0.2183543, 0.0255889, -10.09079, 0, 0, 19, 1, 1
IMU, 15751587, -0.001492291, -0.001220639, -0.005019189, 0.07344966, -0.1235986, -9.636652, 0, 0, 14.78947, 1, 1
IMU2, 15751587, -0.000199412, 0.00189432, -0.003675318, 0.2114513, -0.05501498, -10.06061, 0, 0, 18.875, 1, 1
CURR, 15771654, 13.96057, 0, 0
POWR, 15771664, 5.373779, 0.004, 1
MAG, 15771733, 314, -276, 405, -129, 47, -16, 0, 0, 0, 1, 15771725
MAG2, 15771733, 211, -194, 350, -114, -131, -6, 0, 0, 0, 1, 15771727
BARO, 15771835, 0.0820535, 103522.4, 15.62, 0.09843113, 15771, 0
CTUN, 15771853, 0, 0, 0, 0.327826, 0, 0, 0.08, 0.00, 0.00, 0, 0, 0
ATT, 15771883, 0.78, 0.78, -0.89, -0.89, 41.44, 41.44, 0.51, 0.17
RATE, 15771939, 0.002408487, 0.002408487, -0.0004769744, -0.2233989, -0.2233989, 0.004124332, -0.7016003, -0.7016003, 9.389201E-05, -18.76726, -18.76726, 0
MOTB, 15771953, 1, 1, 0, 1
RCIN, 15771963, 1512, 1502, 1089, 1502, 1086, 1922, 1919, 1920, 0, 0, 0, 0, 0, 0
RCOU, 15772050, 1087, 1087, 1087, 1087, -1, -1, -1, -1, -1, -1, -1, -1, -1, -1
NTUN, 15772070, 0, 0, 0, 0, 0, 0, 0, 0, 2.594298, 20.27885
VIBE, 15772079, 0.02878262, 0.03366284, 0.04285195, 0, 0, 0
CTRL, 15772170, 0.0005535014, 0.001065212, 0.0005780006, 0.001229063, 0.0003466031
IMU, 15791605, -0.0002735148, 0.0001491857, -0.006866397, 0.06516095, -0.09284067, -9.639649, 0, 0, 14.96676, 1, 1
IMU2, 15791605, 0.001638633, 0.001670164, -0.00410703, 0.2991481, -0.05453343, -10.08587, 0, 0, 19, 1, 1
IMU, 15831578, 0.0009288327, 0.0001724832, 0.007267682, 0.06007466, -0.1109029, -9.612385, 0, 0, 14.8338, 1, 1
IMU2, 15831578, -0.004534001, -0.004548893, 0.006080057, 0.2524651, -0.0821124, -10.03625, 0, 0, 18.875, 1, 1
CURR, 15871463, 13.92356, 0, 0
POWR, 15871477, 5.360888, 0.004, 1
MAG, 15871556, 315, -268, 404, -129, 47, -16, 0, 0, 0, 1, 15871548
MAG2, 15871556, 210, -193, 353, -114, -131, -6, 0, 0, 0, 1, 15871551
BARO, 15871668, 0.04499708, 103522.9, 15.62, 0.1885907, 15871, 0
CTUN, 15871686, 0, 0, 0, 0.327826, 0, 0, 0.04, 0.00, 0.00, 0, 0, 0
ATT, 15871716, 0.78, 0.78, -0.89, -0.89, 41.46, 41.46, 0.41, 0.13
RATE, 15871818, 0.2498901, 0.2498901, -0.002469663, -0.2951354, -0.2951354, 0.001214369, -0.4463797, -0.4463797, 0.0001580795, -10.49452, -10.49452, 0
MOTB, 15871832, 1, 1, 0, 1
RCIN, 15871842, 1512, 1502, 1089, 1503, 1087, 1921, 1920, 1920, 0, 0, 0, 0, 0, 0
RCOU, 15871910, 1087, 1087, 1087, 1087, -1, -1, -1, -1, -1, -1, -1, -1, -1, -1
NTUN, 15871931, 0, 0, 0, 0, 0, 0, 0, 0, 2.57694, 20.15117
VIBE, 15871940, 0.02961602, 0.03586589, 0.04455781, 0, 0, 0
CTRL, 15871959, 0.0006255565, 0.001201255, 0.0005729798, 0.001213523, 0.0002866877
IMU, 15872015, 0.001081896, 0.0005333904, 0.001576392, 0.08572271, -0.112531, -9.626024, 0, 0, 14.92244, 1, 1
IMU2, 15872015, 0.0006175915, 0.002188026, 0.007584091, 0.2514993, -0.09530397, -10.14081, 0, 0, 18.875, 1, 1
IMU, 15911320, -0.001262062, 0.0003100399, -0.008957789, 0.08159146, -0.1073089, -9.604784, 0, 0, 14.92244, 1, 1
IMU2, 15911320, -0.002071505, 0.002151571, -0.008520965, 0.2108351, -0.05440111, -10.15413, 0, 0, 18.875, 1, 1
IMU, 15951278, 0.0008857849, 0.0002290572, 0.001005931, 0.08870633, -0.09328692, -9.637195, 0, 0, 14.96676, 1, 1
IMU2, 15951278, 0.00108447, 0.001618209, -0.005403055, 0.3496046, 0.02976569, -10.03487, 0, 0, 19, 1, 1
CURR, 15971275, 13.92141, 0, 0
POWR, 15971284, 5.367334, 0.002, 1
MAG, 15971316, 311, -273, 406, -129, 47, -16, 0, 0, 0, 1, 15971308
MAG2, 15971316, 207, -190, 357, -114, -131, -6, 0, 0, 0, 1, 15971311
BARO, 15971376, -0.1429319, 103525.1, 15.63, 0.2655159, 15971, 0
CTUN, 15971395, 0, 0, 0, 0.327826, 0, 0, -0.14, 0.00, 0.00, 0, 0, 0
ATT, 15971454, 0.77, 0.77, -0.88, -0.88, 41.41, 41.41, 0.41, 0.11
RATE, 15971469, -0.2246544, -0.2246544, 0.0013007, 0.256868, 0.256868, -0.0007298173, 0.623315, 0.623315, -0.0001311303, -12.64858, -12.64858, 0
MOTB, 15971482, 1, 1, 0, 1
RCIN, 15971492, 1512, 1503, 1088, 1503, 1087, 1922, 1919, 1920, 0, 0, 0, 0, 0, 0
RCOU, 15971642, 1087, 1087, 1087, 1087, -1, -1, -1, -1, -1, -1, -1, -1, -1, -1
NTUN, 15971663, 0, 0, 0, 0, 0, 0, 0, 0, 2.552714, 20.04353
VIBE, 15971672, 0.0302955, 0.03438433, 0.04307117, 0, 0, 0
CTRL, 15971690, 0.0006176179, 0.001185465, 0.0006311937, 0.001346677, 0.0002397337
IMU, 15991463, 0.001030211, 0.0007425331, 0.006927594, 0.06438953, -0.1201364, -9.628531, 0, 0, 14.87812, 1, 1
IMU2, 15991463, 0.000221479, 0.002208682, 0.004983737, 0.1960965, -0.06186419, -10.04364, 0, 0, 19, 1, 1
IMU, 16031212, -0.0007926001, -0.0003410253, -0.006138153, 0.07503717, -0.1049025, -9.637718, 0, 0, 14.92244, 1, 1
IMU2, 16031212, 0.001371983, 0.001210058, -0.005023537, 0.246269, -0.00982638, -10.08729, 0, 0, 18.875, 1, 1
CURR, 16073206, 13.93539, 0, 0
POWR, 16073215, 5.381836, 0.007, 1
MAG, 16073255, 315, -279, 403, -129, 47, -16, 0, 0, 0, 1, 16073247
MAG2, 16073255, 208, -190, 355, -114, -131, -6, 0, 0, 0, 1, 16073250
BARO, 16073318, -0.07411284, 103524.3, 15.64, 0.1166669, 16073, 0
CTUN, 16073429, 0, 0, 0, 0.327826, 1.551847E-07, 1.551847E-07, -0.07, 0.00, 0.00, 0, 0, 0
DU32, 16073490, 7, 58824
ATT, 16074471, 0.64, 0.64, -0.85, -0.85, 359.99, 0.00, 0.32, 0.09
NKF1, 16074481, 0.64, -0.85, 359.99, -0.0002325152, 0.0001464865, 0.002410226, 0, 0, 0, 1.551847E-05, 0.00, 0.00, 0.00
NKF2, 16074481, 0, 0.00, 0.00, 0.00, 0.00, 0.00, 0, 0, 0, 0, 0, 0, 0
NKF3, 16074481, 0.00, 0.00, 0.00, 0.00, 0.00, 0.00, 0, 0, 0, 0.00, 0.00
NKF4, 16074481, 0.00, 0.00, 0.00, 0.00, 0.00, 0.9920241, 0, 0, 0, 19, 0, 0, 0
NKF6, 16074481, 0.21, 0.33, 359.99, 0.0002082619, 0.0002167142, -0.002557473, 0, 0, 0, -1.660932E-05, 0.00, 0.00, 0.00
NKF7, 16074481, 0, 0.00, 0.00, 0.00, 0.00, 0.00, 0, 0, 0, 0, 0, 0, 0
NKF8, 16074481, 0.00, 0.00, 0.00, 0.00, 0.00, 0.00, 0, 0, 0, 0.00, 0.00
NKF9, 16074481, 0.00, 0.00, 0.00, 0.00, 0.00, 0.9895151, 0, 0, 0, 23, 0, 0, 0
AHR2, 16074653, 0.77, -0.88, 41.39, -0.07, 0, 0
RATE, 16074670, 0.09083911, 0.09083911, -0.0001017159, -0.1080385, -0.1080385, 3.760211E-05, -0.3580729, -0.3580729, 3.521606E-06, -19.0424, -19.0424, 0
MOTB, 16074690, 1, 1, 0, 1
RCIN, 16074742, 1511, 1504, 1089, 1503, 1087, 1921, 1920, 1920, 0, 0, 0, 0, 0, 0
RCOU, 16074811, 1087, 1087, 1087, 1087, 0, 0, 0, 0, 0, 0, 0, 0, 0, 0
NTUN, 16074832, 0, 0, 0, 0, 0, 0, -0.02325152, 0.01464865, 14.58788, 11.00825
VIBE, 16074841, 0.02910917, 0.03540992, 0.04549827, 0, 0, 0
CTRL, 16074860, 0.0006465309, 0.001245929, 0.0006001954, 0.001283253, 0.0001996413
IMU, 16074887, -0.0002876438, -0.0001938621, -0.005221354, 0.07017675, -0.08958062, -9.615425, 0, 0, 14.78947, 1, 1
IMU2, 16074887, 0.003458527, -0.003577394, -0.007277749, 0.2687732, -0.006681944, -10.04977, 0, 0, 19, 1, 1
EV, 16082412, 62
IMU, 16113857, -0.0001982452, 0.0001277851, 0.008904392, 0.07142882, -0.1174399, -9.642443, 0, 0, 14.78947, 1, 1
IMU2, 16113857, -0.004091754, -0.001959304, 0.001322101, 0.1712742, -0.02733054, -10.09749, 0, 0, 18.875, 1, 1
IMU, 16153995, -0.0001050738, -2.53819E-05, -0.0007037788, 0.08647926, -0.1299995, -9.648238, 0, 0, 14.78947, 1, 1
IMU2, 16153995, 0.001840384, 0.0009543574, -0.00362772, 0.2431512, -0.1097548, -10.0943, 0, 0, 19, 1, 1
CURR, 16174074, 13.95369, 0, 0
POWR, 16174083, 5.380225, 0.002, 1
MAG, 16174107, 310, -274, 405, -129, 47, -16, 0, 0, 0, 1, 16174099
MAG2, 16174107, 213, -196, 348, -114, -131, -6, 0, 0, 0, 1, 16174101
BARO, 16174328, -0.02646887, 103523.7, 15.64, -0.2708821, 16174, 0
CTUN, 16174349, 0, 0, 0, 0.327826, 8.177446E-05, 8.177446E-05, -0.02, 0.00, 0.00, 0, -2, 0
ATT, 16174379, 0.64, 0.64, -0.85, -0.85, 41.46, 41.46, 0.32, 0.07
NKF1, 16174389, 0.64, -0.85, 41.46, 0.0009933416, -0.001198689, 0.02140586, 0, 0, 0, 0.008177446, 0.00, 0.00, 0.00
NKF2, 16174389, 0, 0.00, 0.00, 0.00, 0.00, 0.00, 419, 0, 401, 0, 0, 0, 0
NKF3, 16174389, 0.00, 0.00, 0.00, 0.00, 0.00, 0.00, 0, 0, 0, -0.18, 0.00
NKF4, 16174389, 0.00, 0.00, 0.00, 0.00, 0.00, 0.9156813, 0, 0, 0, 19, 0, 0, 0
NKF6, 16174389, 0.21, 0.33, 40.40, -0.005761851, -0.006799692, -0.02676068, 0, 0, 0, 0.005577388, 0.00, 0.00, 0.00
NKF7, 16174389, 0, 0.00, 0.00, 0.00, 0.00, 0.00, 423, 0, 397, 0, 0, 0, 0
NKF8, 16174389, 0.00, 0.00, 0.00, 0.00, 0.00, 0.00, 0, 0, 0, -0.20, 0.00
NKF9, 16174389, 0.00, 0.00, 0.00, 0.00, 0.00, 0.8905259, 0, 0, 0, 19, 0, 0, 0
AHR2, 16174533, 0.77, -0.87, 41.41, -0.02, 0, 0
RATE, 16174550, 0.04161785, 0.04161785, -0.0005019212, 0.09840762, 0.09840762, -0.0003954304, -0.3711517, -0.3711517, 6.923879E-05, -15.58332, -15.58332, 0
MOTB, 16174612, 1, 1, 0, 1
RCIN, 16174623, 1511, 1503, 1088, 1504, 1086, 1922, 1919, 1927, 0, 0, 0, 0, 0, 0
RCOU, 16174736, 1087, 1087, 1087, 1087, 0, 0, 0, 0, 0, 0, 0, 0, 0, 0
NTUN, 16174757, 0, 0, 0, 0, 0, 0, 0.09933416, -0.1198689, 3.679435, 17.88236
VIBE, 16174766, 0.02754213, 0.03706351, 0.04908573, 0, 0, 0
CTRL, 16174784, 0.0005309019, 0.001021749, 0.0004919106, 0.001051285, 0.0001665262
IMU, 16193917, -0.0007890204, 0.0002266041, -0.00804348, 0.07973884, -0.09948399, -9.634068, 0, 0, 14.8338, 1, 1
IMU2, 16193917, -0.003958825, 0.004354484, -0.01081859, 0.2040814, -0.03247618, -10.00019, 0, 0, 18.875, 1, 1
IMU, 16234125, -9.388405E-06, -0.0003865382, 0.004829156, 0.07882201, -0.09892453, -9.644304, 0, 0, 14.92244, 1, 1
IMU2, 16234125, 0.000213953, 0.001089005, 0.007172625, 0.2026656, 0.02926875, -9.978774, 0, 0, 19, 1, 1
RAD, 16246657, 0, 0, 100, 31, 0, 0, 0
RAD, 16248788, 0, 0, 100, 31, 0, 0, 0
CURR, 16273803, 13.9383, 0, 0
POWR, 16273813, 5.377002, 0.007, 1
MAG, 16273836, 313, -276, 406, -129, 47, -16, 0, 0, 0, 1, 16273828
MAG2, 16273836, 209, -193, 352, -114, -131, -6, 0, 0, 0, 1, 16273830
BARO, 16273914, -0.02646887, 103523.7, 15.65, -0.2826359, 16273, 0
CTUN, 16273935, 0, 0, 0, 0.327826, 0.0001759199, 0.0001759199, -0.02, 0.00, 0.00, 0, -4, 0
ATT, 16273965, 0.63, 0.63, -0.85, -0.85, 41.48, 41.48, 0.26, 0.06
NKF1, 16273975, 0.63, -0.85, 41.48, 0.001917352, -0.002406476, 0.04128986, 0, 0, 0, 0.01759199, 0.00, 0.00, 0.00
NKF2, 16273975, 0, 0.00, 0.00, 0.00, 0.00, 0.00, 419, 0, 401, 0, 0, 0, 0
NKF3, 16273975, 0.00, 0.00, 0.00, 0.00, 0.00, 0.00, 0, 0, 0, -0.18, 0.00
NKF4, 16273975, 0.00, 0.00, 0.00, 0.00, 0.00, 0.8452135, 0, 0, 0, 19, 0, 0, 0
NKF6, 16273975, 0.22, 0.33, 40.44, -0.01307746, -0.007454074, -0.04549888, 0, 0, 0, 0.008532058, 0.00, 0.00, 0.00
NKF7, 16273975, 0, 0.00, 0.00, 0.00, 0.00, 0.00, 423, 0, 397, 0, 0, 0, 0
NKF8, 16273975, 0.00, 0.00, 0.00, 0.00, 0.00, 0.00, 0, 0, 0, -0.20, 0.00
NKF9, 16273975, 0.00, 0.00, 0.00, 0.00, 0.00, 0.8014394, 0, 0, 0, 19, 0, 0, 0
AHR2, 16274260, 0.76, -0.87, 41.44, -0.02, 0, 0
RATE, 16274277, 0.1101623, 0.1101623, 0.0001113866, 0.02671737, 0.02671737, 0.0001739692, 0.3295121, 0.3295121, -1.013131E-05, -17.93175, -17.93175, 0
MOTB, 16274298, 1, 1, 0, 1
RCIN, 16274308, 1512, 1502, 1089, 1503, 1087, 1921, 1920, 1920, 0, 0, 0, 0, 0, 0
RCOU, 16274419, 1087, 1087, 1087, 1087, 0, 0, 0, 0, 0, 0, 0, 0, 0, 0
NTUN, 16274440, 0, 0, 0, 0, 0, 0, 0.1917352, -0.2406476, 3.697659, 17.86349
VIBE, 16274478, 0.02794849, 0.03518763, 0.0444642, 0, 0, 0
CTRL, 16274496, 0.0004364677, 0.0008387596, 0.0004053835, 0.0008648704, 0.0001414911
IMU, 16274524, -0.0004349782, 0.000516065, 0.003939659, 0.07726759, -0.1140626, -9.626365, 0, 0, 14.8338, 1, 1
IMU2, 16274524, 0.004280368, 0.0004165461, 0.007562389, 0.2135303, 0.0197628, -10.01046, 0, 0, 18.75, 1, 1
IMU, 16313801, -0.0006737203, -0.0002724098, -0.006802708, 0.08115463, -0.1178286, -9.632288, 0, 0, 14.87812, 1, 1
IMU2, 16313801, 0.003268658, -0.003715011, -0.008429625, 0.2137594, -0.03664494, -10.02881, 0, 0, 18.875, 1, 1
IMU, 16353915, 0.0001959474, -0.0006657155, -0.002157799, 0.07845052, -0.09527962, -9.64683, 0, 0, 14.96676, 1, 1
IMU2, 16353915, 0.002495527, -0.00246601, 0.0004074899, 0.2444492, -0.08222718, -10.13521, 0, 0, 18.875, 1, 1
CURR, 16373859, 13.95261, 0, 0
POWR, 16373869, 5.385058, 0.004, 1
MAG, 16373980, 316, -272, 405, -129, 47, -16, 0, 0, 0, 1, 16373892
MAG2, 16373980, 211, -195, 350, -114, -131, -6, 0, 0, 0, 1, 16373974
BARO, 16374050, -0.211751, 103526, 15.66, -0.0009608775, 16374, 0
CTUN, 16374072, 0, 0, 0, 0.327826, 0.0002825368, 0.0002825368, -0.21, 0.00, 0.00, 0, -6, 0
ATT, 16374102, 0.63, 0.63, -0.85, -0.85, 41.47, 41.47, 0.26, 0.04
NKF1, 16374111, 0.63, -0.85, 41.47, 0.002948583, -0.003894629, 0.06028415, 0, 0, 0, 0.02825368, 0.00, 0.00, 0.00
NKF2, 16374111, 0, 0.00, 0.00, 0.00, 0.00, 0.00, 419, 0, 401, 0, 0, 0, 0
NKF3, 16374111, 0.00, 0.00, 0.00, 0.00, 0.00, 0.04, 0, 0, 0, -0.19, 0.00
NKF4, 16374111, 0.00, 0.00, 0.00, 0.00, 0.00, 0.6555206, 0, 0, 0, 19, 0, 0, 0
NKF6, 16374111, 0.22, 0.32, 40.42, -0.01530846, -0.01185274, -0.07246912, 0, 0, 0, 0.008563585, 0.00, 0.00, 0.00
NKF7, 16374111, 0, 0.00, 0.00, 0.00, 0.00, 0.00, 423, 0, 397, 0, 0, 0, 0
NKF8, 16374111, 0.00, 0.00, 0.00, 0.00, 0.00, 0.04, 0, 0, 0, -0.23, 0.00
NKF9, 16374111, 0.00, 0.00, 0.00, 0.00, 0.00, 0.6127439, 0, 0, 0, 19, 0, 0, 0
AHR2, 16374408, 0.76, -0.87, 41.43, -0.21, 0, 0
RATE, 16374425, -0.05157333, -0.05157333, -4.901224E-05, 0.3155079, 0.3155079, 5.24604E-05, 0.06911856, 0.06911856, -3.862263E-05, -17.10739, -17.10739, 0
MOTB, 16374445, 1, 1, 0, 1
RCIN, 16374455, 1512, 1502, 1089, 1503, 1087, 1921, 1920, 1920, 0, 0, 0, 0, 0, 0
RCOU, 16374525, 1087, 1087, 1087, 1087, 0, 0, 0, 0, 0, 0, 0, 0, 0, 0
NTUN, 16374545, 0, 0, 0, 0, 0, 0, 0.2948583, -0.3894629, 3.733405, 17.8402
VIBE, 16374554, 0.02524901, 0.03647378, 0.04843896, 0, 0, 0
CTRL, 16374573, 0.0003588594, 0.0006883543, 0.0003370798, 0.0007128835, 0.0001208016
IMU, 16393977, 0.0003384196, 0.001123867, 0.005950322, 0.07495024, -0.1011356, -9.621641, 0, 0, 14.78947, 1, 1
IMU2, 16393977, 0.0002164912, 0.002821279, 0.003091831, 0.2650209, -0.07618161, -10.11319, 0, 0, 18.875, 1, 1
IMU, 16434447, -1.823039E-05, 0.0002501226, -0.001169974, 0.08199786, -0.1322113, -9.633852, 0, 0, 14.8338, 1, 1
IMU2, 16434447, -0.0006419971, -0.0005579251, -0.003339753, 0.2881863, -0.05928237, -10.27024, 0, 0, 18.875, 1, 1
CURR, 16473738, 13.93755, 0, 0
POWR, 16473748, 5.365723, 0.007, 1
MAG, 16473813, 313, -271, 407, -129, 47, -16, 0, 0, 0, 1, 16473763
MAG2, 16473813, 211, -194, 351, -114, -131, -6, 0, 0, 0, 1, 16473765
BARO, 16473875, -0.05823152, 103524.1, 15.66, -0.04309154, 16473, 0
CTUN, 16473897, 0, 0, 0, 0.327826, 0.0003955203, 0.0003955203, -0.05, 0.00, 0.00, 0, -8, 0
ATT, 16473969, 0.63, 0.63, -0.85, -0.85, 41.47, 41.47, 0.21, 0.04
NKF1, 16473979, 0.63, -0.85, 41.47, 0.003990205, -0.005883973, 0.08024157, 0, 0, 0, 0.03955203, 0.00, 0.00, 0.00
NKF2, 16473979, 0, 0.00, 0.00, 0.00, 0.00, 0.00, 419, 0, 401, 0, 0, 0, 0
NKF3, 16473979, 0.00, 0.00, 0.00, 0.00, 0.00, 0.04, 0, 0, 0, -0.11, 0.00
NKF4, 16473979, 0.00, 0.00, 0.00, 0.00, 0.00, 0.4385189, 0, 0, 0, 19, 0, 0, 0
NKF6, 16473979, 0.23, 0.32, 40.42, -0.0161277, -0.01708319, -0.1029371, 0, 0, 0, 0.004339709, 0.00, 0.00, 0.00
NKF7, 16473979, 0, 0.00, 0.00, 0.00, 0.00, 0.00, 423, 0, 397, 0, 0, 0, 0
NKF8, 16473979, 0.00, 0.00, 0.00, 0.00, 0.00, 0.03, 0, 0, 0, -0.14, 0.00
NKF9, 16473979, 0.00, 0.00, 0.00, 0.00, 0.00, 0.4170574, 0, 0, 0, 19, 0, 0, 0
AHR2, 16474287, 0.76, -0.87, 41.41, -0.05, 0, 0
RATE, 16474303, 0.05107434, 0.05107434, 0.0001578974, -0.0213538, -0.0213538, 8.736493E-05, -0.231176, -0.231176, 2.040108E-05, -15.37628, -15.37628, 0
MOTB, 16474324, 1, 1, 0, 1
RCIN, 16474334, 1512, 1504, 1088, 1503, 1087, 1922, 1919, 1920, 0, 0, 0, 0, 0, 0
RCOU, 16474403, 1087, 1087, 1087, 1087, 0, 0, 0, 0, 0, 0, 0, 0, 0, 0
NTUN, 16474424, 0, 0, 0, 0, 0, 0, 0.3990205, -0.5883973, 3.72286, 17.81701
VIBE, 16474433, 0.02788055, 0.03525994, 0.04939755, 0, 0, 0
CTRL, 16474452, 0.0002955358, 0.0005661267, 0.0002795874, 0.0005908891, 0.0001025224
IMU, 16474515, -1.355009E-05, 1.889697E-06, -0.005586492, 0.07281856, -0.1018256, -9.651967, 0, 0, 14.92244, 1, 1
IMU2, 16474515, 0.001796343, -0.0007472727, -0.002488345, 0.2493076, -0.05912626, -9.996645, 0, 0, 18.875, 1, 1
IMU, 16513811, -0.0001661417, 2.651338E-05, 0.002279863, 0.06952705, -0.09606797, -9.650996, 0, 0, 14.78947, 1, 1
IMU2, 16513811, -0.004878115, -0.001085418, 0.004245026, 0.191904, 0.005197375, -10.06541, 0, 0, 18.75, 1, 1
IMU, 16553915, 0.0003815529, 2.997084E-05, 0.003035844, 0.08506957, -0.1014917, -9.632535, 0, 0, 14.87812, 1, 1
IMU2, 16553915, 0.00207086, -0.005306765, 0.004025683, 0.1924668, -0.05691422, -10.00069, 0, 0, 18.875, 1, 1
CURR, 16574385, 13.93346, 0, 0
POWR, 16574394, 5.365723, 0.002, 1
MAG, 16574426, 313, -274, 409, -129, 47, -16, 0, 0, 0, 1, 16574418
MAG2, 16574426, 208, -190, 355, -114, -131, -6, 0, 0, 0, 1, 16574421
BARO, 16574488, -0.1429319, 103525.1, 15.67, -0.2696517, 16574, 0
CTUN, 16574577, 0, 0, 0, 0.327826, 0.0005244756, 0.0005244756, -0.14, 0.00, 0.00, 0, -9, 0
ATT, 16574607, 0.63, 0.63, -0.85, -0.85, 41.48, 41.48, 0.21, 0.03
NKF1, 16574617, 0.63, -0.85, 41.48, 0.004322403, -0.007407135, 0.09837367, 0, 0, 0, 0.05244757, 0.00, 0.00, 0.00
NKF2, 16574617, 0, 0.00, 0.00, 0.00, 0.00, 0.00, 419, 0, 401, 0, 0, 0, 0
NKF3, 16574617, 0.00, 0.00, 0.00, 0.00, 0.00, -0.14, 0, 0, 0, 0.62, 0.00
NKF4, 16574617, 0.00, 0.00, 0.00, 0.00, 0.00, 0.2933654, 0, 0, 0, 19, 0, 0, 0
NKF6, 16574617, 0.22, 0.31, 40.45, -0.02270577, -0.01963777, -0.1257766, 0, 0, 0, -0.003426979, 0.00, 0.00, 0.00
NKF7, 16574617, 0, 0.00, 0.00, 0.00, 0.00, 0.00, 423, 0, 397, 0, 0, 0, 0
NKF8, 16574617, 0.00, 0.00, 0.00, 0.00, 0.00, -0.16, 0, 0, 0, 0.58, 0.00
NKF9, 16574617, 0.00, 0.00, 0.00, 0.00, 0.00, 0.2831582, 0, 0, 0, 19, 0, 0, 0
AHR2, 16574761, 0.76, -0.87, 41.41, -0.14, 0, 0
RATE, 16574778, -0.02806694, -0.02806694, -7.722937E-05, -0.08053775, -0.08053775, -0.0004053797, -0.08225183, -0.08225183, 5.330831E-05, -15.26003, -15.26003, 0
MOTB, 16574798, 1, 1, 0, 1
RCIN, 16574809, 1511, 1503, 1089, 1503, 1086, 1922, 1919, 1920, 0, 0, 0, 0, 0, 0
RCOU, 16574878, 1087, 1087, 1087, 1087, 0, 0, 0, 0, 0, 0, 0, 0, 0, 0
NTUN, 16574898, 0, 0, 0, 0, 0, 0, 0.4322403, -0.7407135, 3.759736, 17.808
VIBE, 16574908, 0.02747419, 0.0343364, 0.04757114, 0, 0, 0
CTRL, 16575019, 0.0002469608, 0.0004694188, 0.0002312849, 0.0004870953, 8.705981E-05
IMU, 16594336, -2.747239E-05, -0.0003303955, -0.005879284, 0.06676851, -0.119811, -9.656784, 0, 0, 14.87812, 1, 1
IMU2, 16594336, 0.0006946248, 0.003499328, -0.003578903, 0.2224132, 0.008773365, -10.11211, 0, 0, 18.75, 1, 1
IMU, 16634340, -0.0004531424, -0.000210479, 0.0006110193, 0.07013728, -0.0996457, -9.628434, 0, 0, 14.92244, 1, 1
IMU2, 16634340, -0.001138619, -0.005151333, 0.001000407, 0.2452867, 0.06134086, -10.07966, 0, 0, 18.875, 1, 1
CURR, 16674107, 13.93324, 0, 0
POWR, 16674117, 5.38667, 0.004, 1
MAG, 16674232, 312, -275, 407, -129, 47, -16, 0, 0, 0, 1, 16674225
MAG2, 16674232, 209, -192, 353, -114, -131, -6, 0, 0, 0, 1, 16674227
BARO, 16674295, -0.02646887, 103523.7, 15.67, -0.180344, 16674, 0
CTUN, 16674316, 0, 0, 0, 0.327826, 0.0006867448, 0.0006867448, -0.02, 0.00, 0.00, 0, -11, 0
ATT, 16674346, 0.63, 0.63, -0.85, -0.85, 41.48, 41.48, 0.16, 0.02
NKF1, 16674356, 0.63, -0.85, 41.48, 0.005057217, -0.008374081, 0.1166402, 0, 0, 0, 0.06867447, 0.00, 0.00, 0.00
NKF2, 16674356, 0, 0.00, 0.00, 0.00, 0.00, 0.00, 419, 0, 401, 0, 0, 0, 0
NKF3, 16674356, 0.00, 0.00, 0.00, 0.00, 0.00, 0.04, 0, 0, 0, 0.40, 0.00
NKF4, 16674356, 0.00, 0.00, 0.00, 0.00, 0.00, 0.1962919, 0, 0, 0, 19, 0, 0, 0
NKF6, 16674356, 0.22, 0.29, 40.44, -0.02708405, -0.01813117, -0.1536714, 0, 0, 0, -0.011289, 0.00, 0.00, 0.00
NKF7, 16674356, 0, 0.00, 0.00, 0.00, 0.00, 0.00, 423, 0, 397, 0, 0, 0, 0
NKF8, 16674356, 0.00, 0.00, 0.00, 0.00, 0.00, 0.01, 0, 0, 0, 0.37, 0.00
NKF9, 16674356, 0.00, 0.00, 0.00, 0.00, 0.00, 0.1926268, 0, 0, 0, 19, 0, 0, 0
AHR2, 16674631, 0.76, -0.87, 41.40, -0.02, 0, 0
RATE, 16674648, 0.06435961, 0.06435961, 0.0003483548, 0.1171888, 0.1171888, 0.0002658508, 0.3082771, 0.3082771, -4.356508E-05, -15.80229, -15.80229, 0
MOTB, 16674669, 1, 1, 0, 1
RCIN, 16674679, 1512, 1504, 1088, 1503, 1087, 1922, 1919, 1920, 0, 0, 0, 0, 0, 0
RCOU, 16674748, 1087, 1087, 1087, 1087, 0, 0, 0, 0, 0, 0, 0, 0, 0, 0
NTUN, 16674768, 0, 0, 0, 0, 0, 0, 0.5057217, -0.8374081, 3.776578, 17.84165
VIBE, 16674778, 0.02719122, 0.03584195, 0.04470524, 0, 0, 0
CTRL, 16674838, 0.0002069496, 0.0003914619, 0.0001950002, 0.0004054979, 7.806138E-05
IMU, 16674866, 0.0008324986, 0.0006259884, 0.006684205, 0.07262758, -0.1075689, -9.647695, 0, 0, 14.92244, 1, 1
IMU2, 16674866, 0.001413293, 0.003465524, 0.004095503, 0.2811195, 0.02636398, -10.09811, 0, 0, 19, 1, 1
IMU, 16714225, -0.000634363, -0.0002886525, -0.00272113, 0.05330098, -0.1121217, -9.643301, 0, 0, 14.92244, 1, 1
IMU2, 16714225, 0.003749603, -0.001119251, -0.0009057135, 0.2093604, -0.05773481, -10.1334, 0, 0, 18.75, 1, 1
IMU, 16754352, -0.0007193777, 0.0005681118, -0.005434145, 0.07470886, -0.1033394, -9.609715, 0, 0, 14.8338, 1, 1
IMU2, 16754352, 0.004929872, 0.002567553, -0.004632955, 0.2612755, -0.04897206, -10.06509, 0, 0, 19, 1, 1
CURR, 16774316, 13.94508, 0, 0
POWR, 16774326, 5.38667, 0.007, 1
MAG, 16774358, 313, -275, 406, -129, 47, -16, 0, 0, 0, 1, 16774350
MAG2, 16774358, 212, -195, 348, -114, -131, -6, 0, 0, 0, 1, 16774352
BARO, 16774420, -0.116463, 103524.9, 15.68, 0.07940663, 16774, 0
CTUN, 16774441, 0, 0, 0, 0.327826, 0.0008619176, 0.0008619176, -0.11, 0.00, 0.00, 0, -13, 0
ATT, 16774471, 0.63, 0.63, -0.85, -0.85, 41.45, 41.45, 0.16, 0.02
NKF1, 16774481, 0.63, -0.85, 41.45, 0.004762864, -0.01038615, 0.1348174, 0, 0, 0, 0.08619176, 0.00, 0.00, 0.00
NKF2, 16774481, 0, 0.00, 0.00, 0.00, 0.00, 0.00, 419, 0, 401, 0, 0, 0, 0
NKF3, 16774481, 0.00, 0.00, 0.00, 0.00, 0.00, -0.03, 0, 0, 0, 0.09, 0.00
NKF4, 16774481, 0.00, 0.00, 0.00, 0.00, 0.00, 0.131528, 0, 0, 0, 19, 0, 0, 0
NKF6, 16774481, 0.23, 0.27, 40.41, -0.03062055, -0.02347088, -0.178217, 0, 0, 0, -0.02202584, 0.00, 0.00, 0.00
NKF7, 16774481, 0, 0.00, 0.00, 0.00, 0.00, 0.00, 423, 0, 397, 0, 0, 0, 0
NKF8, 16774481, 0.00, 0.00, 0.00, 0.00, 0.00, -0.08, 0, 0, 0, 0.07, 0.00
NKF9, 16774481, 0.00, 0.00, 0.00, 0.00, 0.00, 0.1312294, 0, 0, 0, 19, 0, 0, 0
AHR2, 16774656, 0.75, -0.87, 41.40, -0.11, 0, 0
RATE, 16774701, 0.001750425, 0.001750425, -4.177622E-05, -0.03990665, -0.03990665, -0.0003943245, 0.1178381, 0.1178381, -6.155234E-05, -14.5133, -14.5133, 0
MOTB, 16774722, 1, 1, 0, 1
RCIN, 16774732, 1512, 1504, 1088, 1503, 1087, 1922, 1919, 1920, 0, 0, 0, 0, 0, 0
RCOU, 16774847, 1087, 1087, 1087, 1087, 0, 0, 0, 0, 0, 0, 0, 0, 0, 0
NTUN, 16774868, 0, 0, 0, 0, 0, 0, 0.4762864, -1.038615, 3.807162, 17.84708
VIBE, 16774877, 0.02957975, 0.03483622, 0.04954389, 0, 0, 0
CTRL, 16774896, 0.0001789504, 0.0003344944, 0.0001638224, 0.0003395825, 6.647435E-05
IMU, 16794310, -0.00138562, -8.853786E-05, 0.004554753, 0.06907503, -0.1041746, -9.612644, 0, 0, 14.8338, 1, 1
IMU2, 16794310, 0.000934914, -0.0004770215, 0.0042406, 0.3202648, 0.01747973, -10.10806, 0, 0, 19, 1, 1
IMU, 16834451, 0.0006737168, 0.0003234937, 0.0002953375, 0.07180109, -0.1254475, -9.641721, 0, 0, 14.92244, 1, 1
IMU2, 16834451, -0.002321733, -0.001097698, 0.002146379, 0.2680867, -0.03148992, -9.978809, 0, 0, 19, 1, 1
CURR, 16874051, 13.95186, 0, 0
POWR, 16874061, 5.354443, 0.007, 1
MAG, 16874092, 309, -277, 411, -129, 47, -16, 0, 0, 0, 1, 16874084
MAG2, 16874092, 210, -193, 350, -114, -131, -6, 0, 0, 0, 1, 16874086
BARO, 16874163, -0.04764397, 103524, 15.69, 0.1618859, 16874, 0
CTUN, 16874310, 0, 0, 0, 0.327826, 0.001056744, 0.001056744, -0.04, 0.00, 0.00, 0, -15, 0
ATT, 16874340, 0.63, 0.63, -0.86, -0.86, 41.42, 41.42, 0.13, 0.01
NKF1, 16874396, 0.63, -0.86, 41.42, 0.005393004, -0.01204667, 0.1544846, 0, 0, 0, 0.1056744, 0.00, 0.00, 0.00
NKF2, 16874396, 0, 0.00, 0.00, 0.00, 0.00, 0.00, 419, 0, 401, 0, 0, 0, 0
NKF3, 16874396, 0.00, 0.00, 0.00, 0.00, 0.00, 0.09, 0, 0, 0, -0.24, 0.00
NKF4, 16874396, 0.00, 0.00, 0.00, 0.00, 0.00, 0.0881036, 0, 0, 0, 19, 0, 0, 0
NKF6, 16874396, 0.23, 0.24, 40.40, -0.03125051, -0.02270184, -0.1988855, 0, 0, 0, -0.0346813, 0.00, 0.00, 0.00
NKF7, 16874396, 0, 0.00, 0.00, 0.00, 0.00, 0.00, 423, 0, 397, 0, 0, 0, 0
NKF8, 16874396, 0.00, 0.00, 0.00, 0.00, 0.00, 0.03, 0, 0, 0, -0.29, 0.00
NKF9, 16874396, 0.00, 0.00, 0.00, 0.00, 0.00, 0.08922505, 0, 0, 0, 19, 0, 0, 0
AHR2, 16874688, 0.75, -0.87, 41.41, -0.04, 0, 0
RATE, 16874704, -0.01762891, -0.01762891, -0.0001357215, -0.02437698, -0.02437698, 0.0003364656, -0.245766, -0.245766, 3.990236E-05, -18.22052, -18.22052, 0
MOTB, 16874725, 1, 1, 0, 1
RCIN, 16874735, 1511, 1504, 1089, 1503, 1086, 1922, 1919, 1920, 0, 0, 0, 0, 0, 0
RCOU, 16874804, 1087, 1087, 1087, 1087, 0, 0, 0, 0, 0, 0, 0, 0, 0, 0
NTUN, 16874825, 0, 0, 0, 0, 0, 0, 0.5393004, -1.204667, 3.823672, 17.95175
VIBE, 16874835, 0.03163538, 0.03319968, 0.04701826, 0, 0, 0
CTRL, 16874853, 0.000149295, 0.0002782978, 0.0001378403, 0.0002850658, 6.170675E-05
IMU, 16874880, -0.0006061209, -0.0003231546, -0.006565412, 0.05928106, -0.1071582, -9.623253, 0, 0, 14.92244, 1, 1
IMU2, 16874880, -1.234423E-05, -0.0005258446, -0.00199961, 0.2530644, 0.02353961, -10.06205, 0, 0, 19, 1, 1
IMU, 16913795, -0.000689074, 0.0001895805, 0.0002629626, 0.07222414, -0.107506, -9.632318, 0, 0, 14.87812, 1, 1
IMU2, 16913795, 0.002030341, 0.0002778676, 0.002521873, 0.1765135, -0.02783483, -10.1327, 0, 0, 19, 1, 1
IMU, 16953913, 0.0004325381, 0.0003938429, 0.002965363, 0.07052797, -0.1092165, -9.631557, 0, 0, 14.8338, 1, 1
IMU2, 16953913, -0.001783905, 8.445558E-05, -0.001046831, 0.2140061, -0.08365895, -10.00632, 0, 0, 19, 1, 1
CURR, 16973885, 13.93432, 0, 0
POWR, 16973938, 5.370556, 0.007, 1
MAG, 16973961, 313, -281, 405, -129, 47, -16, 0, 0, 0, 1, 16973954
MAG2, 16973961, 208, -189, 356, -114, -131, -6, 0, 0, 0, 1, 16973956
BARO, 16974099, -0.1323444, 103525, 15.69, 0.07937361, 16974, 0
CTUN, 16974120, 0, 0, 0, 0.327826, 0.001255995, 0.001255995, -0.13, 0.00, 0.00, 0, -17, 0
ATT, 16974234, 0.64, 0.64, -0.86, -0.86, 41.41, 41.41, 0.13, 0.01
NKF1, 16974244, 0.64, -0.86, 41.41, 0.00528049, -0.01222975, 0.1728226, 0, 0, 0, 0.1255995, 0.00, 0.00, 0.00
NKF2, 16974244, 0, 0.00, 0.00, 0.00, 0.00, 0.00, 419, 0, 401, 0, 0, 0, 0
NKF3, 16974244, 0.00, 0.00, 0.00, 0.00, 0.00, 0.00, 0, 0, 0, -0.10, 0.00
NKF4, 16974244, 0.00, 0.00, 0.00, 0.00, 0.00, 0.05905249, 0, 0, 0, 19, 0, 0, 0
NKF6, 16974244, 0.24, 0.20, 40.39, -0.03541839, -0.02721858, -0.2263762, 0, 0, 0, -0.04977388, 0.00, 0.00, 0.00
NKF7, 16974244, 0, 0.00, 0.00, 0.00, 0.00, 0.00, 423, 0, 397, 0, 0, 0, 0
NKF8, 16974244, 0.00, 0.00, 0.00, 0.00, 0.00, -0.07, 0, 0, 0, -0.19, 0.00
NKF9, 16974244, 0.00, 0.00, 0.00, 0.00, 0.00, 0.06148747, 0, 0, 0, 19, 0, 0, 0
AHR2, 16974413, 0.75, -0.87, 41.44, -0.13, 0, 0
RATE, 16974458, -0.001902066, -0.001902066, -6.349159E-05, 0.05694023, 0.05694023, -0.0001099783, -0.04584481, -0.04584481, 2.357895E-05, -16.24308, -16.24308, 0
MOTB, 16974478, 1, 1, 0, 1
RCIN, 16974489, 1512, 1503, 1089, 1503, 1087, 1921, 1920, 1920, 0, 0, 0, 0, 0, 0
RCOU, 16974558, 1087, 1087, 1087, 1087, 0, 0, 0, 0, 0, 0, 0, 0, 0, 0
NTUN, 16974578, 0, 0, 0, 0, 0, 0, 0.5280491, -1.222975, 3.768166, 18.10048
VIBE, 16974587, 0.03209698, 0.03083248, 0.04299444, 0, 0, 0
CTRL, 16974606, 0.0001272106, 0.0002354255, 0.0001186596, 0.0002435226, 5.40999E-05
IMU, 16994116, -0.0002886116, 0.0006570201, -0.00156009, 0.07536143, -0.1250507, -9.630822, 0, 0, 14.92244, 1, 1
IMU2, 16994116, 0.003456231, -0.0004919584, -0.001724368, 0.309089, -0.09603748, -9.985668, 0, 0, 19, 1, 1
IMU, 17033797, -0.0003377445, -0.0008274275, -0.003647791, 0.05750663, -0.1136859, -9.625798, 0, 0, 14.92244, 1, 1
IMU2, 17033797, -0.001178569, 0.001121549, -0.002353337, 0.2822085, -0.01535932, -10.04391, 0, 0, 18.875, 1, 1
CURR, 17073774, 13.94831, 0, 0
POWR, 17073784, 5.378613, 0.004, 1
MAG, 17073807, 313, -278, 408, -129, 47, -16, 0, 0, 0, 1, 17073799
MAG2, 17073807, 208, -191, 354, -114, -131, -6, 0, 0, 0, 1, 17073801
BARO, 17073869, -0.1217568, 103524.9, 15.70, -0.03970332, 17073, 0
CTUN, 17073933, 0, 0, 0, 0.327826, 0.001471057, 0.001471057, -0.12, 0.00, 0.00, 0, -19, 0
DU32, 17073948, 7, 58824
ATT, 17074619, 0.65, 0.65, -0.86, -0.86, 41.40, 41.40, 0.10, 0.01
NKF1, 17074629, 0.65, -0.86, 41.40, 0.00569847, -0.01284457, 0.1915938, 0, 0, 0, 0.1471057, 0.00, 0.00, 0.00
NKF2, 17074629, 0, 0.00, 0.00, 0.00, 0.00, 0.00, 419, 0, 401, 0, 0, 0, 0
NKF3, 17074629, 0.00, 0.00, 0.00, 0.00, 0.00, 0.08, 0, 0, 0, -0.58, 0.00
NKF4, 17074629, 0.00, 0.00, 0.00, 0.00, 0.00, 0.03959224, 0, 0, 0, 19, 0, 0, 0
NKF6, 17074629, 0.25, 0.16, 40.39, -0.03316993, -0.02376931, -0.2474819, 0, 0, 0, -0.06755491, 0.00, 0.00, 0.00
NKF7, 17074629, 0, 0.00, 0.00, 0.00, 0.00, 0.00, 423, 0, 397, 0, 0, 0, 0
NKF8, 17074629, 0.00, 0.00, 0.00, 0.00, 0.00, -0.01, 0, 0, 0, -0.66, 0.00
NKF9, 17074629, 0.00, 0.00, 0.00, 0.00, 0.00, 0.04189129, 0, 0, 0, 19, 0, 0, 0
AHR2, 17074803, 0.75, -0.88, 41.46, -0.12, 0, 0
RATE, 17074820, 0.008586746, 0.008586746, 0.0002020359, 0.1170249, 0.1170249, 0.0001547579, 0.2087341, 0.2087341, -5.447573E-05, -17.80748, -17.80748, 0
MOTB, 17074885, 1, 1, 0, 1
RCIN, 17074895, 1512, 1503, 1089, 1503, 1087, 1921, 1920, 1920, 0, 0, 0, 0, 0, 0
RCOU, 17075005, 1087, 1087, 1087, 1087, 0, 0, 0, 0, 0, 0, 0, 0, 0, 0
NTUN, 17075033, 0, 0, 0, 0, 0, 0, 0.569847, -1.284457, 3.718916, 18.29348
VIBE, 17075043, 0.02990864, 0.03308515, 0.03977404, 0, 0, 0
CTRL, 17075065, 0.0001089761, 0.0001987112, 0.0001036457, 0.0002105189, 4.712094E-05
IMU, 17075092, -0.0006555371, 0.0006993322, 0.001937352, 0.07583804, -0.1115666, -9.627413, 0, 0, 14.87812, 1, 1
IMU2, 17075092, 0.0009498316, 0.003387883, 0.005336325, 0.2582848, -0.03138475, -10.03846, 0, 0, 18.875, 1, 1
IMU, 17113777, -0.0004609549, -4.136965E-05, -5.019006E-05, 0.0823248, -0.1158139, -9.613198, 0, 0, 14.87812, 1, 1
IMU2, 17113777, -0.0009927999, 0.002962362, 5.834528E-05, 0.2951666, 0.04623365, -10.07504, 0, 0, 19, 1, 1
IMU, 17153884, -0.0001762044, 0.0001349611, -0.005141549, 0.07513341, -0.1087071, -9.623978, 0, 0, 14.87812, 1, 1
IMU2, 17153884, -0.001695422, 0.0030547, -0.006674212, 0.2295088, -0.02827117, -10.17827, 0, 0, 18.875, 1, 1
RAD, 17168957, 0, 0, 100, 41, 0, 0, 0
RAD, 17169007, 0, 0, 100, 41, 0, 0, 0
CURR, 17174045, 13.94895, 0, 0
POWR, 17174055, 5.364111, 0.004, 1
MAG, 17174086, 315, -272, 410, -129, 47, -16, 0, 0, 0, 1, 17174078
MAG2, 17174086, 211, -194, 349, -114, -131, -6, 0, 0, 0, 1, 17174081
BARO, 17174189, -0.05823152, 103524.1, 15.71, -0.1177542, 17174, 0
CTUN, 17174210, 0, 0, 0, 0.327826, 0.001695896, 0.001695896, -0.05, 0.00, 0.00, 0, -21, 0
ATT, 17174324, 0.66, 0.66, -0.87, -0.87, 41.39, 41.39, 0.10, 0.01
NKF1, 17174334, 0.66, -0.87, 41.39, 0.006647798, -0.0125387, 0.2102236, 0, 0, 0, 0.1695896, 0.00, 0.00, 0.00
NKF2, 17174334, 0, 0.00, 0.00, 0.00, 0.00, 0.00, 419, 0, 401, 0, 0, 0, 0
NKF3, 17174334, 0.00, 0.00, 0.00, 0.00, 0.00, 0.01, 0, 0, 0, -0.68, 0.00
NKF4, 17174334, 0.00, 0.00, 0.00, 0.00, 0.00, 0.02654559, 0, 0, 0, 19, 0, 0, 0
NKF6, 17174334, 0.25, 0.12, 40.39, -0.0350875, -0.01697158, -0.275703, 0, 0, 0, -0.08765297, 0.00, 0.00, 0.00
NKF7, 17174334, 0, 0.00, 0.00, 0.00, 0.00, 0.00, 423, 0, 397, 0, 0, 0, 0
NKF8, 17174334, 0.00, 0.00, 0.00, 0.00, 0.00, -0.11, 0, 0, 0, -0.78, 0.00
NKF9, 17174334, 0.00, 0.00, 0.00, 0.00, 0.00, 0.02852285, 0, 0, 0, 19, 0, 0, 0
AHR2, 17174522, 0.75, -0.87, 41.47, -0.05, 0, 0
RATE, 17174539, 0.03910031, 0.03910031, -0.0001143479, 0.01245087, 0.01245087, -0.0001232319, -0.06834228, -0.06834228, -1.585809E-05, -17.9574, -17.9574, 0
MOTB, 17174559, 1, 1, 0, 1
RCIN, 17174569, 1512, 1503, 1089, 1505, 1086, 1922, 1919, 1920, 0, 0, 0, 0, 0, 0
RCOU, 17174681, 1087, 1087, 1087, 1087, 0, 0, 0, 0, 0, 0, 0, 0, 0, 0
NTUN, 17174702, 0, 0, 0, 0, 0, 0, 0.6647798, -1.25387, 3.653456, 18.45984
VIBE, 17174711, 0.02811984, 0.03239907, 0.04624191, 0, 0, 0
CTRL, 17174729, 9.503635E-05, 0.0001702642, 9.085657E-05, 0.0001829876, 4.312116E-05
IMU, 17194013, 0.000178923, 0.0006998371, 0.001657074, 0.08245806, -0.09817443, -9.646697, 0, 0, 14.92244, 1, 1
IMU2, 17194013, 0.006002192, 0.004451845, 0.0003125952, 0.2675812, 0.03099068, -10.06417, 0, 0, 18.875, 1, 1
IMU, 17233935, 0.00116281, 0.0007286116, 0.001912513, 0.08335571, -0.1211965, -9.64898, 0, 0, 14.92244, 1, 1
IMU2, 17233935, -0.002063884, 0.001517605, -0.001929972, 0.2307647, -0.08392905, -10.15706, 0, 0, 18.875, 1, 1
CURR, 17273889, 13.91926, 0, 0
POWR, 17273898, 5.377002, 0.004, 1
MAG, 17273921, 309, -279, 408, -129, 47, -16, 0, 0, 0, 1, 17273914
MAG2, 17273921, 211, -194, 350, -114, -131, -6, 0, 0, 0, 1, 17273916
BARO, 17273984, -0.09528794, 103524.6, 15.71, -0.0651357, 17273, 0
CTUN, 17274005, 0, 0, 0, 0.327826, 0.001938048, 0.001938048, -0.09, 0.00, 0.00, 0, -22, 0
ATT, 17274043, 0.67, 0.67, -0.87, -0.87, 41.40, 41.40, 0.08, 0.01
NKF1, 17274053, 0.67, -0.87, 41.40, 0.00696446, -0.01192269, 0.2276896, 0, 0, 0, 0.1938048, 0.00, 0.00, 0.00
NKF2, 17274053, 0, 0.00, 0.00, 0.00, 0.00, 0.00, 419, 0, 401, 0, 0, 0, 0
NKF3, 17274053, 0.00, 0.00, 0.00, 0.00, 0.00, 0.03, 0, 0, 0, -0.34, 0.00
NKF4, 17274053, 0.00, 0.00, 0.00, 0.00, 0.00, 0.01779627, 0, 0, 0, 19, 0, 0, 0
NKF6, 17274053, 0.26, 0.09, 40.40, -0.03241513, -0.01358112, -0.3020335, 0, 0, 0, -0.1098436, 0.00, 0.00, 0.00
NKF7, 17274053, 0, 0.00, 0.00, 0.00, 0.00, 0.00, 423, 0, 397, 0, 0, 0, 0
NKF8, 17274053, 0.00, 0.00, 0.00, 0.00, 0.00, -0.11, 0, 0, 0, -0.43, 0.00
NKF9, 17274053, 0.00, 0.00, 0.00, 0.00, 0.00, 0.01936999, 0, 0, 0, 19, 0, 0, 0
AHR2, 17274362, 0.75, -0.87, 41.45, -0.09, 0, 0
RATE, 17274378, -0.008313459, -0.008313459, -4.340223E-05, 0.03055615, 0.03055615, -2.609995E-05, -0.2819706, -0.2819706, 4.370642E-05, -16.19787, -16.19787, 0
MOTB, 17274399, 1, 1, 0, 1
RCIN, 17274409, 1512, 1502, 1088, 1505, 1087, 1921, 1920, 1920, 0, 0, 0, 0, 0, 0
RCOU, 17274507, 1087, 1087, 1087, 1087, 0, 0, 0, 0, 0, 0, 0, 0, 0, 0
NTUN, 17274527, 0, 0, 0, 0, 0, 0, 0.6964461, -1.192269, 3.566869, 18.62385
VIBE, 17274537, 0.02705359, 0.03435491, 0.04728965, 0, 0, 0
CTRL, 17274555, 8.885706E-05, 0.0001529392, 9.117234E-05, 0.0001768579, 3.963649E-05
IMU, 17274583, -0.001169131, -0.0006569502, -0.00442064, 0.07090921, -0.09964628, -9.643449, 0, 0, 14.92244, 1, 1
IMU2, 17274583, 0.000871918, 0.00172564, -0.005478336, 0.2699482, -0.06195284, -10.05802, 0, 0, 18.875, 1, 1
IMU, 17313827, -0.0007658835, 0.0001962324, -0.001800114, 0.06940109, -0.09172964, -9.648222, 0, 0, 14.96676, 1, 1
IMU2, 17313827, 0.004188659, -0.002162369, -0.001235957, 0.2673567, -0.03551817, -10.09063, 0, 0, 19, 1, 1
IMU, 17354258, -0.001114218, 0.0005312745, 0.002464515, 0.07387938, -0.1001266, -9.638647, 0, 0, 14.96676, 1, 1
IMU2, 17354258, -0.0006079656, 0.00499495, 0.007051336, 0.2637601, 0.0003200171, -10.08498, 0, 0, 18.875, 1, 1
CURR, 17373967, 13.94723, 0, 0
POWR, 17373977, 5.372168, 0.007, 1
MAG, 17374017, 315, -275, 403, -129, 47, -16, 0, 0, 0, 1, 17374009
MAG2, 17374017, 210, -194, 350, -114, -131, -6, 0, 0, 0, 1, 17374012
BARO, 17374087, -0.07411284, 103524.3, 15.72, 0.06933153, 17374, 0
CTUN, 17374108, 0, 0, 0, 0.327826, 0.002187237, 0.002187237, -0.07, 0.00, 0.00, 0, -24, 0
ATT, 17374223, 0.68, 0.68, -0.87, -0.87, 41.42, 41.42, 0.08, 0.01
NKF1, 17374233, 0.68, -0.87, 41.42, 0.006461094, -0.01108711, 0.2450471, 0, 0, 0, 0.2187237, 0.00, 0.00, 0.00
NKF2, 17374233, 0, 0.00, 0.00, 0.00, 0.00, 0.00, 419, 0, 401, 0, 0, 0, 0
NKF3, 17374233, 0.00, 0.00, 0.00, 0.00, 0.00, 0.11, 0, 0, 0, 0.42, 0.00
NKF4, 17374233, 0.00, 0.00, 0.00, 0.00, 0.00, 0.0119635, 0, 0, 0, 19, 0, 0, 0
NKF6, 17374233, 0.27, 0.07, 40.44, -0.03011516, -0.008963767, -0.3251402, 0, 0, 0, -0.1337569, 0.00, 0.00, 0.00
NKF7, 17374233, 0, 0.00, 0.00, 0.00, 0.00, 0.00, 423, 0, 397, 0, 0, 0, 0
NKF8, 17374233, 0.00, 0.00, 0.00, 0.00, 0.00, -0.06, 0, 0, 0, 0.34, 0.00
NKF9, 17374233, 0.00, 0.00, 0.00, 0.00, 0.00, 0.01319575, 0, 0, 0, 19, 0, 0, 0
AHR2, 17374529, 0.75, -0.86, 41.49, -0.07, 0, 0
RATE, 17374546, 0.04822554, 0.04822554, 0.0003194271, 0.3134679, 0.3134679, -4.645841E-05, 0.1629205, 0.1629205, -5.056561E-06, -15.16752, -15.16752, 0
MOTB, 17374566, 1, 1, 0, 1
RCIN, 17374577, 1512, 1503, 1089, 1503, 1087, 1922, 1919, 1920, 0, 0, 0, 0, 0, 0
RCOU, 17374715, 1087, 1087, 1087, 1087, 0, 0, 0, 0, 0, 0, 0, 0, 0, 0
NTUN, 17374735, 0, 0, 0, 0, 0, 0, 0.6461093, -1.108711, 3.500958, 18.70223
VIBE, 17374745, 0.03040252, 0.0318228, 0.04731636, 0, 0, 0
CTRL, 17374763, 8.430988E-05, 0.0001461518, 8.614935E-05, 0.0001637066, 3.942599E-05
IMU, 17394015, -0.0001115226, 0.00090023, -0.001762151, 0.05908647, -0.1164326, -9.631484, 0, 0, 14.96676, 1, 1
IMU2, 17394015, 0.0002638981, 0.004726289, 0.002856646, 0.2629241, -0.0110667, -9.882176, 0, 0, 19, 1, 1
IMU, 17433985, 0.0006569505, -0.0002027801, -0.0053166, 0.09790064, -0.08875079, -9.643604, 0, 0, 15.01108, 1, 1
IMU2, 17433985, 0.002921723, -0.001073481, -0.008101272, 0.2989661, -0.05265882, -10.12587, 0, 0, 19, 1, 1
CURR, 17473950, 13.93636, 0, 0
POWR, 17473960, 5.365723, 0.007, 1
MAG, 17473983, 312, -275, 409, -129, 47, -16, 0, 0, 0, 1, 17473975
MAG2, 17473983, 210, -192, 352, -114, -131, -6, 0, 0, 0, 1, 17473978
BARO, 17474053, 0.0423502, 103522.9, 15.72, 0.1422702, 17474, 0
CTUN, 17474075, 0, 0, 0, 0.327826, 0.002444714, 0.002444714, 0.04, 0.00, 0.00, 0, -26, 0
ATT, 17474105, 0.69, 0.69, -0.87, -0.87, 41.42, 41.42, 0.06, 0.01
NKF1, 17474246, 0.69, -0.87, 41.42, 0.006521417, -0.01026346, 0.2614874, 0, 0, 0, 0.2444714, 0.00, 0.00, 0.00
NKF2, 17474246, 0, 0.00, 0.00, 0.00, 0.00, 0.00, 419, 0, 401, 0, 0, 0, 0
NKF3, 17474246, 0.00, 0.00, 0.00, 0.00, 0.00, 0.09, 0, 0, 0, -0.72, 0.00
NKF4, 17474246, 0.00, 0.00, 0.00, 0.00, 0.00, 0.008016766, 0, 0, 0, 19, 0, 0, 0
NKF6, 17474246, 0.26, 0.05, 40.45, -0.02749988, -0.003578941, -0.3474448, 0, 0, 0, -0.1599236, 0.00, 0.00, 0.00
NKF7, 17474246, 0, 0.00, 0.00, 0.00, 0.00, 0.00, 423, 0, 397, 0, 0, 0, 0
NKF8, 17474246, 0.00, 0.00, 0.00, 0.00, 0.00, -0.11, 0, 0, 0, -0.80, 0.00
NKF9, 17474246, 0.00, 0.00, 0.00, 0.00, 0.00, 0.008991776, 0, 0, 0, 19, 0, 0, 0
AHR2, 17474428, 0.75, -0.85, 41.47, 0.04, 0, 0
RATE, 17474450, -0.078426, -0.078426, 0.00039167, -0.01740031, -0.01740031, -3.742432E-05, 0.09799062, 0.09799062, -4.110465E-05, -16.21456, -16.21456, 0
MOTB, 17474470, 1, 1, 0, 1
RCIN, 17474480, 1511, 1504, 1088, 1504, 1087, 1921, 1920, 1920, 0, 0, 0, 0, 0, 0
RCOU, 17474601, 1087, 1087, 1087, 1087, 0, 0, 0, 0, 0, 0, 0, 0, 0, 0
NTUN, 17474709, 0, 0, 0, 0, 0, 0, 0.6521417, -1.026346, 3.398547, 18.84907
VIBE, 17474719, 0.03168169, 0.03021081, 0.04470876, 0, 0, 0
CTRL, 17474741, 7.559299E-05, 0.0001286778, 8.336234E-05, 0.0001532291, 4.079537E-05
IMU, 17474769, 0.0007032501, 0.0005852139, 0.001441197, 0.07773498, -0.1162101, -9.642415, 0, 0, 14.96676, 1, 1
IMU2, 17474769, -0.003448925, -0.001190747, 0.001905945, 0.2889213, 0.01651202, -10.06507, 0, 0, 19, 1, 1
IMU, 17514052, -0.0009764153, -0.0007340631, 0.0001897722, 0.08900255, -0.1023109, -9.645988, 0, 0, 15.01108, 1, 1
IMU2, 17514052, 0.002314704, 0.003616487, 0.001148885, 0.2803118, -0.105765, -10.02172, 0, 0, 19, 1, 1
IMU, 17553857, -0.0008996648, -0.0002001451, -0.004187291, 0.08339771, -0.1156134, -9.631363, 0, 0, 14.96676, 1, 1
IMU2, 17553857, 0.003929874, -0.001310796, -9.474441E-05, 0.2660725, -0.1009131, -10.04689, 0, 0, 19, 1, 1
CURR, 17574288, 13.91818, 0, 0
POWR, 17574298, 5.354443, 0.007, 1
MAG, 17574330, 315, -278, 410, -129, 47, -16, 0, 0, 0, 1, 17574322
MAG2, 17574330, 208, -190, 355, -114, -131, -6, 0, 0, 0, 1, 17574324
BARO, 17574392, -0.08470039, 103524.4, 15.73, 0.1946964, 17574, 0
CTUN, 17574413, 0, 0, 0, 0.327826, 0.002709914, 0.002709914, -0.08, 0.00, 0.00, 0, -27, 0
ATT, 17574443, 0.69, 0.69, -0.87, -0.87, 41.44, 41.44, 0.06, 0.00
NKF1, 17574453, 0.69, -0.87, 41.44, 0.007269567, -0.009078952, 0.2777791, 0, 0, 0, 0.2709914, 0.00, 0.00, 0.00
NKF2, 17574453, 0, 0.00, 0.00, 0.00, 0.00, 0.00, 419, 0, 401, 0, 0, 0, 0
NKF3, 17574453, 0.00, 0.00, 0.00, 0.00, 0.00, 0.12, 0, 0, 0, 0.14, 0.00
NKF4, 17574453, 0.00, 0.00, 0.00, 0.00, 0.00, 0.005372309, 0, 0, 0, 19, 0, 0, 0
NKF6, 17574453, 0.27, 0.04, 40.47, -0.02334312, -0.001609805, -0.3679761, 0, 0, 0, -0.1872962, 0.00, 0.00, 0.00
NKF7, 17574453, 0, 0.00, 0.00, 0.00, 0.00, 0.00, 423, 0, 397, 0, 0, 0, 0
NKF8, 17574453, 0.00, 0.00, 0.00, 0.00, 0.00, -0.11, 0, 0, 0, 0.04, 0.00
NKF9, 17574453, 0.00, 0.00, 0.00, 0.00, 0.00, 0.006118571, 0, 0, 0, 19, 0, 0, 0
AHR2, 17574671, 0.75, -0.85, 41.47, -0.08, 0, 0
RATE, 17574730, 0.06162981, 0.06162981, 0.0003176089, 0.04082536, 0.04082536, 0.0001362518, -0.144734, -0.144734, 7.79728E-06, -15.02666, -15.02666, 0
MOTB, 17574750, 1, 1, 0, 1
RCIN, 17574760, 1511, 1503, 1089, 1504, 1086, 1922, 1919, 1920, 0, 0, 0, 0, 0, 0
RCOU, 17574829, 1087, 1087, 1087, 1087, 0, 0, 0, 0, 0, 0, 0, 0, 0, 0
NTUN, 17574850, 0, 0, 0, 0, 0, 0, 0.7269567, -0.9078953, 3.378343, 18.90206
VIBE, 17574859, 0.0333354, 0.03083385, 0.04964854, 0, 0, 0
CTRL, 17574878, 7.358224E-05, 0.0001255341, 7.750595E-05, 0.0001421397, 3.526231E-05
IMU, 17594381, -0.0001647226, 0.0002113532, 0.0007220758, 0.07365704, -0.1043808, -9.648378, 0, 0, 14.92244, 1, 1
IMU2, 17594381, 0.003990014, 0.00254823, 0.007123878, 0.2406309, 0.03078914, -10.01453, 0, 0, 19, 1, 1
IMU, 17634251, 0.0005170923, -0.0001965189, 0.003045897, 0.07419039, -0.1038238, -9.622502, 0, 0, 14.96676, 1, 1
IMU2, 17634251, 0.002521541, 0.002319882, 0.001453885, 0.3420978, -0.02051437, -10.02875, 0, 0, 19, 1, 1
CURR, 17674080, 13.92141, 0, 0
POWR, 17674089, 5.389893, 0.007, 1
MAG, 17674113, 309, -275, 408, -129, 47, -16, 0, 0, 0, 1, 17674105
MAG2, 17674113, 209, -191, 354, -114, -131, -6, 0, 0, 0, 1, 17674107
BARO, 17674259, -0.09528794, 103524.6, 15.74, 0.1891613, 17674, 0
CTUN, 17674281, 0, 0, 0, 0.327826, 0.002978021, 0.002978021, -0.09, 0.00, 0.00, 0, -29, -29
ATT, 17674376, 0.70, 0.70, -0.87, -0.87, 41.45, 41.45, 0.06, 0.00
NKF1, 17674386, 0.70, -0.87, 41.45, 0.00757094, -0.008855179, 0.2935882, 0, 0, 0, 0.2978021, 0.00, 0.00, 0.00
NKF2, 17674386, 0, 0.00, 0.00, 0.00, 0.00, 0.00, 419, 0, 401, 0, 0, 0, 0
NKF3, 17674386, 0.00, 0.00, 0.00, 0.00, 0.00, 0.25, 0, 0, 0, -0.04, 0.00
NKF4, 17674386, 0.00, 0.00, 0.01, 0.00, 0.00, 0.00360125, 0, 0, 0, 19, 165, 0, 0
NKF6, 17674386, 0.28, 0.04, 40.50, -0.02285504, -0.0007447387, -0.3875909, 0, 0, 0, -0.2158945, 0.00, 0.00, 0.00
NKF7, 17674386, 0, 0.00, 0.00, 0.00, 0.00, 0.00, 423, 0, 397, 0, 0, 0, 0
NKF8, 17674386, 0.00, 0.00, 0.00, 0.00, 0.00, -0.01, 0, 0, 0, -0.09, 0.00
NKF9, 17674386, 0.00, 0.00, 0.00, 0.00, 0.00, 0.00417192, 0, 0, 0, 19, 165, 0, 0
AHR2, 17674577, 0.75, -0.85, 41.48, -0.09, 0, 0
RATE, 17674594, 0.03824177, 0.03824177, 1.123799E-05, -0.01011993, -0.01011993, -0.00022266, -0.1003296, -0.1003296, 3.048528E-05, -16.58535, -16.58535, 0
MOTB, 17674615, 1, 1, 0, 1
RCIN, 17674625, 1512, 1503, 1089, 1503, 1087, 1922, 1919, 1920, 0, 0, 0, 0, 0, 0
RCOU, 17674702, 1087, 1087, 1087, 1087, 0, 0, 0, 0, 0, 0, 0, 0, 0, 0
NTUN, 17674753, 0, 0, 0, 0, 0, 0, 0.757094, -0.8855179, 3.308558, 18.96502
VIBE, 17674762, 0.02792441, 0.03186928, 0.0496615, 0, 0, 0
CTRL, 17674781, 7.50663E-05, 0.0001261516, 7.366049E-05, 0.0001378793, 3.335349E-05
IMU, 17674808, -0.0003479397, -2.924997E-05, -0.00302264, 0.07624212, -0.1378338, -9.636572, 0, 0, 14.96676, 1, 1
IMU2, 17674808, 0.001673966, -0.000322899, -0.0005475911, 0.1569459, -0.03139526, -10.10408, 0, 0, 19, 1, 1
IMU, 17713949, -0.0008483867, -0.0001669755, -0.001852781, 0.06091218, -0.0976622, -9.650923, 0, 0, 15.01108, 1, 1
IMU2, 17713949, -0.002294857, -0.000171985, 0.002105525, 0.1772615, -0.05439296, -10.09134, 0, 0, 19, 1, 1
IMU, 17754115, -1.87867E-06, 0.0005853979, 0.002913405, 0.07212469, -0.1163911, -9.629851, 0, 0, 15.01108, 1, 1
IMU2, 17754115, -0.0002932468, -0.001694375, 0.003854439, 0.3304126, 0.03838686, -9.990424, 0, 0, 18.875, 1, 1
